[
  {
    "id": 1,
    "name": "Acadia National Park",
    "latitude": 44.338,
    "longitude": -68.273,
    "funFact": "Acadia offers the highest point on the U.S. Atlantic coast at Cadillac Mountain.",
    "description": "Features coastal landscapes and rocky shorelines.",
    "icon": "waterfall"
  },
  {
    "id": 2,
    "name": "Arches National Park",
    "latitude": 38.733,
    "longitude": -109.6,
    "funFact": "Arches National Park has over 2,000 natural stone arches.",
    "description": "Known for its natural arches and unique rock formations.",
    "icon": "arch"
  },
  {
    "id": 3,
    "name": "Badlands National Park",
    "latitude": 43.855,
    "longitude": -102.339,
    "funFact": "Badlands features some of the most eroded and colorful landscapes in the U.S.",
    "description": "Known for its rugged terrain and dramatic landscapes.",
    "icon": "canyon"
  },
  {
    "id": 4,
    "name": "Big Bend National Park",
    "latitude": 29.253,
    "longitude": -103.242,
    "funFact": "Big Bend is named for the sharp bend in the Rio Grande river.",
    "description": "Features desert landscapes and the Rio Grande river.",
    "icon": "sun"
  },
  {
    "id": 5,
    "name": "Biscayne National Park",
    "latitude": 25.441,
    "longitude": -80.162,
    "funFact": "Biscayne protects one of the largest marine parks in the U.S.",
    "description": "Known for its coral reefs and underwater landscapes.",
    "icon": "fish"
  },
  {
    "id": 6,
    "name": "Black Canyon of the Gunnison National Park",
    "latitude": 38.575,
    "longitude": -107.73,
    "funFact": "The Black Canyon has some of the steepest cliffs in North America.",
    "description": "Features dramatic and deep canyon views.",
    "icon": "canyon"
  },
  {
    "id": 7,
    "name": "Bryce Canyon National Park",
    "latitude": 37.593,
    "longitude": -112.187,
    "funFact": "Bryce Canyon is known for its unique hoodoo rock formations.",
    "description": "Famous for its colorful rock spires and amphitheaters.",
    "icon": "canyon"
  },
  {
    "id": 8,
    "name": "Canyonlands National Park",
    "latitude": 38.326,
    "longitude": -109.5,
    "funFact": "Canyonlands features stunning canyons and unique rock formations.",
    "description": "Known for its canyons carved by the Colorado River.",
    "icon": "canyon"
  },
  {
    "id": 9,
    "name": "Capitol Reef National Park",
    "latitude": 38.366,
    "longitude": -111.261,
    "funFact": "Capitol Reef features a unique water pocket fold in the landscape.",
    "description": "Known for its unique rock formations and historic fruit orchards.",
    "icon": "canyon"
  },
  {
    "id": 10,
    "name": "Carlsbad Caverns National Park",
    "latitude": 32.149,
    "longitude": -104.556,
    "funFact": "Carlsbad Caverns contains over 119 caves formed by sulfuric acid dissolution.",
    "description": "Features extensive cave systems and underground formations.",
    "icon": "campground"
  },
  {
    "id": 11,
    "name": "Channel Islands National Park",
    "latitude": 34.012,
    "longitude": -119.378,
    "funFact": "Channel Islands is known for its diverse marine life and island ecosystems.",
    "description": "Offers rugged island landscapes and marine life.",
    "icon": "waterfall"
  },
  {
    "id": 12,
    "name": "Congaree National Park",
    "latitude": 33.786,
    "longitude": -80.948,
    "funFact": "Congaree is known for its old-growth bottomland hardwood forest.",
    "description": "Features rich biodiversity and large floodplain forest.",
    "icon": "forest"
  },
  {
    "id": 13,
    "name": "Crater Lake National Park",
    "latitude": 42.944,
    "longitude": -122.109,
    "funFact": "Crater Lake is the deepest lake in the U.S.",
    "description": "Known for its stunning blue lake and volcanic caldera.",
    "icon": "waterfall"
  },
  {
    "id": 14,
    "name": "Cuyahoga Valley National Park",
    "latitude": 41.3,
    "longitude": -81.55,
    "funFact": "Cuyahoga Valley features the scenic Cuyahoga River and picturesque waterfalls.",
    "description": "Known for its river valleys and beautiful waterfalls.",
    "icon": "waterfall"
  },
  {
    "id": 15,
    "name": "Death Valley National Park",
    "latitude": 36.46,
    "longitude": -116.87,
    "funFact": "Death Valley is the hottest and driest national park in the U.S.",
    "description": "Features desert landscapes and extreme temperatures.",
    "icon": "sun"
  },
  {
    "id": 16,
    "name": "Denali National Park",
    "latitude": 63.073,
    "longitude": -151.263,
    "funFact": "Denali is home to North America's highest peak, standing at 20,310 feet.",
    "description": "Features towering mountains and expansive wilderness.",
    "icon": "mountain"
  },
  {
    "id": 17,
    "name": "Dry Tortugas National Park",
    "latitude": 24.628,
    "longitude": -82.873,
    "funFact": "Dry Tortugas is known for its remote location and historic Fort Jefferson.",
    "description": "Features coral reefs and historic fortifications.",
    "icon": "waterfall"
  },
  {
    "id": 18,
    "name": "Everglades National Park",
    "latitude": 25.286,
    "longitude": -80.979,
    "funFact": "Everglades is home to diverse wildlife including alligators and panthers.",
    "description": "Known for its unique wetlands and rich biodiversity.",
    "icon": "fish"
  },
  {
    "id": 19,
    "name": "Gates of the Arctic National Park",
    "latitude": 67.28,
    "longitude": -152.42,
    "funFact": "Gates of the Arctic is one of the most remote and untouched national parks.",
    "description": "Features expansive wilderness and Arctic landscapes.",
    "icon": "mountain"
  },
  {
    "id": 20,
    "name": "Gateway Arch National Park",
    "latitude": 38.624,
    "longitude": -90.184,
    "funFact": "Gateway Arch is a symbol of the westward expansion of the United States.",
    "description": "Known for its iconic arch and historical significance.",
    "icon": "sun"
  },
  {
    "id": 21,
    "name": "Glacier Bay National Park",
    "latitude": 58.689,
    "longitude": -137.987,
    "funFact": "Glacier Bay features dramatic fjords and active glaciers.",
    "description": "Known for its stunning glaciers and marine wildlife.",
    "icon": "mountain"
  },
  {
    "id": 22,
    "name": "Glacier National Park",
    "latitude": 48.759,
    "longitude": -113.787,
    "funFact": "Glacier National Park is known for its rugged mountains and stunning scenery.",
    "description": "Features alpine landscapes and diverse ecosystems.",
    "icon": "mountain"
  },
  {
    "id": 23,
    "name": "Grand Canyon National Park",
    "latitude": 36.106,
    "longitude": -112.112,
    "funFact": "Grand Canyon is one of the seven natural wonders of the world.",
    "description": "Known for its immense and visually overwhelming canyon.",
    "icon": "canyon"
  },
  {
    "id": 24,
    "name": "Grand Teton National Park",
    "latitude": 43.742,
    "longitude": -110.804,
    "funFact": "Grand Teton is known for its dramatic mountain peaks and alpine lakes.",
    "description": "Features rugged mountain scenery and beautiful lakes.",
    "icon": "mountain"
  },
  {
    "id": 25,
    "name": "Great Basin National Park",
    "latitude": 39.013,
    "longitude": -116.121,
    "funFact": "Great Basin features unique cave formations and starry night skies.",
    "description": "Known for its caves and diverse ecological zones.",
    "icon": "campground"
  },
  {
    "id": 26,
    "name": "Great Sand Dunes National Park",
    "latitude": 37.798,
    "longitude": -105.592,
    "funFact": "Great Sand Dunes has the tallest sand dunes in North America.",
    "description": "Features impressive sand dunes and alpine landscapes.",
    "icon": "sun"
  },
  {
    "id": 27,
    "name": "Great Smoky Mountains National Park",
    "latitude": 35.657,
    "longitude": -83.507,
    "funFact": "Great Smoky Mountains is known for its mist-covered mountains and rich biodiversity.",
    "description": "Features rolling mountains and diverse plant and animal life.",
    "icon": "forest"
  },
  {
    "id": 28,
    "name": "Guadalupe Mountains National Park",
    "latitude": 31.926,
    "longitude": -104.88,
    "funFact": "Guadalupe Mountains includes the highest peak in Texas.",
    "description": "Known for its mountainous terrain and desert landscapes.",
    "icon": "mountain"
  },
  {
    "id": 29,
    "name": "Haleakalā National Park",
    "latitude": 20.716,
    "longitude": -156.254,
    "funFact": "Haleakalā is home to one of the world's largest dormant volcanoes.",
    "description": "Features volcanic landscapes and stunning sunrises.",
    "icon": "sun"
  },
  {
    "id": 30,
    "name": "Hawai’i Volcanoes National Park",
    "latitude": 19.405,
    "longitude": -155.281,
    "funFact": "Hawai’i Volcanoes is known for its active volcanoes, including Kilauea.",
    "description": "Features volcanic landscapes and lava tubes.",
    "icon": "mountain"
  },
  {
    "id": 31,
    "name": "Hot Springs National Park",
    "latitude": 34.514,
    "longitude": -93.056,
    "funFact": "Hot Springs is famous for its natural hot springs and historic bathhouses.",
    "description": "Known for its thermal waters and historic spa.",
    "icon": "waterfall"
  },
  {
    "id": 32,
    "name": "Indiana Dunes National Park",
    "latitude": 41.669,
    "longitude": -87.19,
    "funFact": "Indiana Dunes features diverse habitats including dunes, wetlands, and forests.",
    "description": "Known for its sandy shores and diverse ecosystems.",
    "icon": "sun"
  },
  {
    "id": 33,
    "name": "Isle Royale National Park",
    "latitude": 48.099,
    "longitude": -88.554,
    "funFact": "Isle Royale is an isolated island park with rich wildlife and wilderness.",
    "description": "Features remote island landscapes and diverse wildlife.",
    "icon": "mountain"
  },
  {
    "id": 34,
    "name": "Joshua Tree National Park",
    "latitude": 33.873,
    "longitude": -115.9,
    "funFact": "Joshua Tree is known for its unique desert flora and striking rock formations.",
    "description": "Features desert landscapes and iconic Joshua trees.",
    "icon": "sun"
  },
  {
    "id": 35,
    "name": "Katmai National Park",
    "latitude": 58.1,
    "longitude": -154.7,
    "funFact": "Katmai is famous for its large population of brown bears and volcanic activity.",
    "description": "Known for its wildlife and volcanic landscapes.",
    "icon": "mountain"
  },
  {
    "id": 36,
    "name": "Kenai Fjords National Park",
    "latitude": 59.977,
    "longitude": -149.596,
    "funFact": "Kenai Fjords features dramatic fjords and glaciers.",
    "description": "Known for its fjords and marine wildlife.",
    "icon": "mountain"
  },
  {
    "id": 37,
    "name": "Kings Canyon National Park",
    "latitude": 36.883,
    "longitude": -118.565,
    "funFact": "Kings Canyon features deep valleys and high granite cliffs.",
    "description": "Known for its deep canyons and rugged landscapes.",
    "icon": "canyon"
  },
  {
    "id": 38,
    "name": "Kobuk Valley National Park",
    "latitude": 67.3,
    "longitude": -156.3,
    "funFact": "Kobuk Valley is known for its sand dunes and caribou migrations.",
    "description": "Features sand dunes and Arctic wildlife.",
    "icon": "mountain"
  },
  {
    "id": 39,
    "name": "Lake Clark National Park",
    "latitude": 60.26,
    "longitude": -153.41,
    "funFact": "Lake Clark features volcanic landscapes and pristine lakes.",
    "description": "Known for its diverse landscapes and wilderness.",
    "icon": "mountain"
  },
  {
    "id": 40,
    "name": "Lassen Volcanic National Park",
    "latitude": 40.49,
    "longitude": -121.5,
    "funFact": "Lassen Volcanic features a variety of volcanic features including fumaroles and boiling springs.",
    "description": "Known for its volcanic activity and geothermal features.",
    "icon": "mountain"
  },
  {
    "id": 41,
    "name": "Mammoth Cave National Park",
    "latitude": 37.2,
    "longitude": -86.1,
    "funFact": "Mammoth Cave is the longest cave system in the world.",
    "description": "Features extensive underground cave systems.",
    "icon": "campground"
  },
  {
    "id": 42,
    "name": "Mesa Verde National Park",
    "latitude": 37.2,
    "longitude": -108.5,
    "funFact": "Mesa Verde is known for its well-preserved Ancestral Puebloan cliff dwellings.",
    "description": "Features ancient cliff dwellings and archaeological sites.",
    "icon": "campground"
  },
  {
    "id": 43,
    "name": "Mount Rainier National Park",
    "latitude": 46.85,
    "longitude": -121.76,
    "funFact": "Mount Rainier is an active volcano and the highest peak in Washington state.",
    "description": "Features glaciated peaks and alpine meadows.",
    "icon": "mountain"
  },
  {
    "id": 44,
    "name": "National Park of American Samoa",
    "latitude": -14.33,
    "longitude": -170.65,
    "funFact": "The National Park of American Samoa is one of the few tropical rainforests in the U.S. park system.",
    "description": "Features tropical rainforests and coral reefs.",
    "icon": "waterfall"
  },
  {
    "id": 45,
    "name": "New River Gorge National Park",
    "latitude": 38.033,
    "longitude": -81.07,
    "funFact": "New River Gorge is known for its impressive gorge and outdoor recreation opportunities.",
    "description": "Features dramatic river gorges and outdoor activities.",
    "icon": "canyon"
  },
  {
    "id": 46,
    "name": "North Cascades National Park",
    "latitude": 48.77,
    "longitude": -121.81,
    "funFact": "North Cascades is known for its rugged mountain landscapes and diverse ecosystems.",
    "description": "Features rugged mountains and dense forests.",
    "icon": "mountain"
  },
  {
    "id": 47,
    "name": "Olympic National Park",
    "latitude": 47.8,
    "longitude": -123.6,
    "funFact": "Olympic National Park features diverse ecosystems from beaches to alpine peaks.",
    "description": "Known for its varied landscapes and biodiversity.",
    "icon": "sun"
  },
  {
    "id": 48,
    "name": "Petrified Forest National Park",
    "latitude": 35.05,
    "longitude": -109.45,
    "funFact": "Petrified Forest is known for its fossilized trees and colorful badlands.",
    "description": "Features fossilized trees and colorful geological formations.",
    "icon": "canyon"
  },
  {
    "id": 49,
    "name": "Pinnacles National Park",
    "latitude": 36.49,
    "longitude": -121.16,
    "funFact": "Pinnacles features unique rock spires and cave formations.",
    "description": "Known for its rock formations and cave systems.",
    "icon": "canyon"
  },
  {
    "id": 50,
    "name": "Redwood National Park",
    "latitude": 41.3,
    "longitude": -124.0,
    "funFact": "Redwood is home to the tallest trees on earth.",
    "description": "Features towering redwoods and coastal landscapes.",
    "icon": "forest"
  },
  {
    "id": 51,
    "name": "Rocky Mountain National Park",
    "latitude": 40.35,
    "longitude": -105.65,
    "funFact": "Rocky Mountain National Park offers stunning alpine views and wildlife.",
    "description": "Known for its high-altitude peaks and alpine lakes.",
    "icon": "mountain"
  },
  {
    "id": 52,
    "name": "Saguaro National Park",
    "latitude": 32.233,
    "longitude": -111.071,
    "funFact": "Saguaro is known for its giant saguaro cacti, a symbol of the American Southwest.",
    "description": "Features iconic saguaro cacti and desert landscapes.",
    "icon": "sun"
  },
  {
    "id": 53,
    "name": "Sequoia National Park",
    "latitude": 36.5,
    "longitude": -118.57,
    "funFact": "Sequoia is home to the largest trees by volume, including General Sherman Tree.",
    "description": "Known for its massive sequoia trees and mountainous terrain.",
    "icon": "forest"
  },
  {
    "id": 54,
    "name": "Shenandoah National Park",
    "latitude": 38.53,
    "longitude": -78.48,
    "funFact": "Shenandoah features the scenic Skyline Drive and Appalachian Trail access.",
    "description": "Known for its beautiful drives and hiking trails.",
    "icon": "sun"
  },
  {
    "id": 55,
    "name": "Theodore Roosevelt National Park",
    "latitude": 46.93,
    "longitude": -103.52,
    "funFact": "Theodore Roosevelt Park is known for its badlands and bison herds.",
    "description": "Features rugged badlands and diverse wildlife.",
    "icon": "canyon"
  },
  {
    "id": 56,
    "name": "Virgin Islands National Park",
    "latitude": 18.33,
    "longitude": -64.85,
    "funFact": "Virgin Islands features tropical beaches and rich marine life.",
    "description": "Known for its beautiful beaches and coral reefs.",
    "icon": "waterfall"
  },
  {
    "id": 57,
    "name": "Voyageurs National Park",
    "latitude": 48.53,
    "longitude": -92.87,
    "funFact": "Voyageurs is known for its lakes and canoeing opportunities.",
    "description": "Features waterways and remote wilderness.",
    "icon": "waterfall"
  },
  {
    "id": 58,
    "name": "White Sands National Park",
    "latitude": 32.78,
    "longitude": -106.17,
    "funFact": "White Sands is known for its stunning white gypsum sand dunes.",
    "description": "Features vast white sand dunes and desert landscapes.",
    "icon": "sun"
  },
  {
    "id": 59,
    "name": "Wind Cave National Park",
    "latitude": 43.54,
    "longitude": -103.48,
    "funFact": "Wind Cave is known for its unique cave formations and underground passages.",
    "description": "Features extensive cave systems and unique formations.",
    "icon": "campground"
  },
  {
    "id": 60,
    "name": "Wrangell-St. Elias National Park",
    "latitude": 61.2,
    "longitude": -142.98,
    "funFact": "Wrangell-St. Elias is the largest national park in the U.S., with vast glaciers and mountains.",
    "description": "Features expansive glaciers and mountain ranges.",
    "icon": "mountain"
  },
  {
    "id": 61,
    "name": "Yosemite National Park",
    "latitude": 37.74,
    "longitude": -119.58,
    "funFact": "Yosemite is famous for its stunning granite cliffs and waterfalls.",
    "description": "Known for its iconic granite formations and waterfalls.",
    "icon": "canyon"
  },
  {
    "id": 62,
    "name": "Zion National Park",
    "latitude": 37.3,
    "longitude": -113.05,
    "funFact": "Zion features dramatic canyon views and striking rock formations.",
    "description": "Known for its deep canyons and towering rock formations.",
    "icon": "canyon"
  }
]
